{
"type": "FeatureCollection",
"name": "orthodoxmonasteries",
"crs": { "type": "name", "properties": { "name": "urn:ogc:def:crs:OGC:1.3:CRS84" } },
"xy_coordinate_resolution": 1e-08,
"features": [
{ "type": "Feature", "properties": { "Name": "Debre Abbay" }, "geometry": { "type": "Point", "coordinates": [ 37.98333333, 13.86666667 ] } },
{ "type": "Feature", "properties": { "Name": "Debre Dammo" }, "geometry": { "type": "Point", "coordinates": [ 39.29027778, 14.37388889 ] } },
{ "type": "Feature", "properties": { "Name": "Debre Libanos" }, "geometry": { "type": "Point", "coordinates": [ 38.8475, 9.71194444 ] } },
{ "type": "Feature", "properties": { "Name": "Debre Kerbe" }, "geometry": { "type": "Point", "coordinates": [ 39.3600672, 11.520433 ] } },
{ "type": "Feature", "properties": { "Name": "Debre Istifanos" }, "geometry": { "type": "Point", "coordinates": [ 39.6976, 11.3387 ] } },
{ "type": "Feature", "properties": { "Name": "Debre Metmik" }, "geometry": { "type": "Point", "coordinates": [ 39.64, 9.94777778 ] } }
]
}
